[{ "_id" : "Jet9qKgT6LFzQYuYB", "name" : "Residence Inn Hughes Center", "offsetInMinutes" : 40, "latitude" : 36.115748, "longitude" : -115.155794, "city" : "Las Vegas", "state" : "Nevada", "code" : "RHCLV", "crossStreets" : [ "Paradise Rd", "Flamingo Rd" ], "timezone" : "America/Los_Angeles", "tags" : [ "Las Vegas", "Residence Inn Las Vegas Hughes Center" ], "streetAddress" : "370 Hughes Center Dr" }
,{ "_id" : "c5M293ZMB2xmYfhth", "offsetInMinutes" : 12, "latitude" : 36.166133, "longitude" : -115.157236, "name" : "Cheesecake Factory", "city" : "Las Vegas", "state" : "Nevada", "code" : "CFALV", "crossStreets" : [ "Bonneville Ave", "Grand Central Pkwy" ], "timezone" : "America/Los_Angeles", "tags" : [ "Las Vegas", "Downtown" ], "streetAddress" : "505 S Grand Central Pkwy" }
,{ "_id" : "6qu69DCtP9kjkBX9F", "longitude" : -118.3891667, "name" : "Culver City Metro Station", "offsetInMinutes" : 20, "latitude" : 34.028069, "city" : "Culver City", "state" : "California", "code" : "CCMCC", "crossStreets" : [ "Washington Blvd", "National Blvd" ], "timezone" : "America/Los_Angeles", "tags" : [ "Culver City", "Los Angeles", "Beverly Hills", "Santa Monica", "LAX" ], "streetAddress" : "8817 Washington Blvd" }
,{ "_id" : "J3XHXZ9ZXqHwpRMHH", "name" : "Luxe City Center Hotel", "offsetInMinutes" : 40, "latitude" : 34.04431, "longitude" : -118.264288, "city" : "Los Angeles", "state" : "California", "code" : "LUXLA", "crossStreets" : [ "Figueroa St", "Olympic Blvd" ], "timezone" : "America/Los_Angeles", "tags" : [ "Los Angeles", "Beverly Hills", "Huntington Park", "Lynwood", "Downey", "Alhambra", "Pico Rivera", "LAX" ], "streetAddress" : "1020 S Figueroa St" }
,{ "_id" : "kWCSSwpFvXBvuNyD5", "name" : "Starbucks at Fairplex and I-10", "offsetInMinutes" : 85, "latitude" : 34.0719241, "longitude" : -117.7884239, "city" : "Pomona", "state" : "California", "code" : "STRPO", "crossStreets" : [ "Murchison Ave", "Fairplex Dr" ], "timezone" : "America/Los_Angeles", "tags" : [ "Pomona", "Walnut", "Chino Hills", "Covina", "Glendora", "Diamond Bar", "La Verne", "Claremont", "Montclair" ], "streetAddress" : "2101 Murchison Ave" }
,{ "_id" : "FK7fPkeR5RbdQes7N", "name" : "Starbucks at N Vincent Ave and I-10", "offsetInMinutes" : 80, "latitude" : 34.0708843, "longitude" : -117.9291204, "city" : "West Covina", "state" : "California", "code" : "STRWC", "crossStreets" : [ "West Covina Pkwy", "South Vincent Ave" ], "timezone" : "America/Los_Angeles", "tags" : [ "West Covina", "La Puente", "Walnut", "Azusa", "Covina" ], "streetAddress" : "1202 W West Covina Pkwy" }
,{ "_id" : "tGjWqddJeMky8XyYy", "latitude" : 36.139826, "longitude" : -115.152892, "name" : "Hilton Grand Vacations Convention Center", "offsetInMinutes" : 35, "city" : "Las Vegas", "state" : "Nevada", "code" : "HCCLV", "crossStreets" : [ "Karen Ave", "Paradise Rd" ], "timezone" : "America/Los_Angeles", "tags" : [ "Las Vegas", "Hilton Grand Vacations Convention Center" ], "streetAddress" : "359 Karen Ave" }
,{ "_id" : "WhNfiqBxgc3ehrB5t", "name" : "Starbucks at 161 N Hill Ave", "offsetInMinutes" : 60, "latitude" : 34.148797, "longitude" : -118.121597, "city" : "Pasadena", "state" : "California", "code" : "STRPA", "crossStreets" : [ "Walnut St", "North Hill Ave" ], "timezone" : "America/Los_Angeles", "tags" : [ "Los Angeles", "Pasadena", "Arcadia", "Alhambra", "Glendale", "Burbank", "La Canada Flintridge" ], "streetAddress" : "161 N Hill Ave" }
,{ "_id" : "u3ESwBA4PuentF5ji", "offsetInMinutes" : 33, "name" : "Hilton Grand Vacations on The Strip", "latitude" : 36.139866, "longitude" : -115.160648, "city" : "Las Vegas", "state" : "Nevada", "code" : "HGVLV", "crossStreets" : [ "Sahara Rd", "Las Vegas Blvd" ], "timezone" : "America/Los_Angeles", "tags" : [ "Las Vegas", "Hilton Grand Vacations on Las Vegas Blvd" ], "streetAddress" : "2648 S Las Vegas Blvd" }
,{ "_id" : "dW5QapqTbziemvsKP", "latitude" : 36.1659378, "longitude" : -115.1391428, "name" : "Tesla Supercharger Station Downtown Las Vegas", "offsetInMinutes" : 0, "city" : "Las Vegas", "state" : "Nevada", "code" : "TESLV", "crossStreets" : [ "Bridger Ave", "8th St" ], "timezone" : "America/Los_Angeles", "tags" : [ "Las Vegas", "Tesla Supercharger Station" ], "streetAddress" : "228 S 8th St" }
,{ "_id" : "WuZcoobx78bjtrQNx", "name" : "Aria", "offsetInMinutes" : 50, "latitude" : 36.107399, "longitude" : -115.173752, "city" : "Las Vegas", "state" : "Nevada", "code" : "ARILV", "crossStreets" : [ "City Center Place", "Las Vegas Blvd" ], "timezone" : "America/Los_Angeles", "tags" : [ "Las Vegas", "Aria" ], "streetAddress" : "3734 Las Vegas Blvd S" }
,{ "_id" : "dFkoSFLJLQKhAA8tF", "name" : "Bally's", "offsetInMinutes" : 50, "latitude" : 36.11294165253639, "longitude" : -115.17274752259254, "city" : "Las Vegas", "state" : "Nevada", "code" : "BALLV", "crossStreets" : [ "Flamingo Rd", "Las Vegas Blvd" ], "timezone" : "America/Los_Angeles", "tags" : [ "Las Vegas", "Bally's" ], "streetAddress" : "3629 Las Vegas Blvd S" }
,{ "_id" : "mu8uWaMjcKSmeysSe", "name" : "Chili's", "offsetInMinutes" : 170, "latitude" : 34.8492626, "longitude" : -117.0849671, "city" : "Barstow", "state" : "California", "code" : "CHIBA", "crossStreets" : [ "Lenwood Rd", "Tanger Way" ], "timezone" : "America/Los_Angeles", "tags" : [ "Barstow", "Victorville", "Hesperia" ], "streetAddress" : "2812 Lenwood Rd" }
,{ "_id" : "oniQdyfz7pY4fXfT3", "name" : "Tesla Buckeye Supercharger", "offsetInMinutes" : 40, "latitude" : 33.443026, "longitude" : -112.556884, "city" : "Phoenix", "state" : "Arizona", "code" : "TESBU", "crossStreets" : [ "I-10", "Watson Rd" ], "timezone" : "America/Los_Angeles" }
,{ "_id" : "szJfKggr2eW2kC6QL", "name" : "Starbucks at Rosemead Square Shopping Center", "offsetInMinutes" : 70, "latitude" : 34.074936, "longitude" : -118.07253, "city" : "Rosemead", "state" : "CA", "code" : "STRRM", "crossStreets" : [ "Marshall St", "Rosemead Blvd" ], "timezone" : "America/Los_Angeles", "tags" : [ "Los Angeles", "Monterey Park", "San Gabriel", "El Monte", "Temple City", "Montebello", "Pico Rivera" ], "streetAddress" : "3620 Rosemead Blvd" }
,{ "_id" : "iHpdAH4eFZH3H6bqX", "offsetInMinutes" : 50, "latitude" : 36.111874, "longitude" : -115.175177, "name" : "Bellagio", "city" : "Las Vegas", "state" : "Nevada", "code" : "BELLV", "crossStreets" : [ "Flamingo Rd", "Las Vegas Blvd" ], "timezone" : "America/Los_Angeles", "tags" : [ "Las Vegas", "Bellagio" ], "streetAddress" : "3658 S Las Vegas Blvd" }
,{ "_id" : "BqfMYpYaq6K4goR29", "latitude" : 36.11708068847656, "longitude" : -115.17301177978516, "name" : "Caesar's Palace", "offsetInMinutes" : 50, "city" : "Las Vegas", "state" : "Nevada", "code" : "CPLLV", "crossStreets" : [ "Flamingo Rd", "Las Vegas Blvd" ], "timezone" : "America/Los_Angeles", "tags" : [ "Las Vegas", "Caesar's Palace" ], "streetAddress" : "3570 S Las Vegas Blvd" }
,{ "_id" : "PyhEsDnHdC4aP7zDF", "name" : "Candlewood Suites", "offsetInMinutes" : 40, "latitude" : 36.1157894, "longitude" : -115.1537506, "city" : "Las Vegas", "state" : "Nevada", "code" : "CWSLV", "crossStreets" : [ "Paradise Rd", "Flamingo Rd" ], "timezone" : "America/Los_Angeles", "tags" : [ "Las Vegas", "Candlewood Suites" ], "streetAddress" : "4034 Paradise Rd" }
,{ "_id" : "2MJJMPYN6werGmXoS", "name" : "Circus Circus", "offsetInMinutes" : 25, "latitude" : 36.136793, "longitude" : -115.161984, "city" : "Las Vegas", "state" : "Nevada", "code" : "CRCLV", "crossStreets" : [ "Sahara Ave", "Las Vegas Blvd" ], "timezone" : "America/Los_Angeles", "tags" : [ "Las Vegas", "Circus Circus" ], "streetAddress" : "2854 Las Vegas Blvd S" }
,{ "_id" : "yuyKB6aGhf4Gr2WPP", "name" : "The Cosmopolitan", "offsetInMinutes" : 50, "latitude" : 36.109512, "longitude" : -115.175683, "city" : "Las Vegas", "state" : "Nevada", "code" : "COSLV", "crossStreets" : [ "Harmon Ave", "Las Vegas Blvd" ], "timezone" : "America/Los_Angeles", "tags" : [ "Las Vegas", "The Cosmopolitan" ], "streetAddress" : "2550 W Harmon Ave" }
,{ "_id" : "s3kAJEyuHKivcQ2Gv", "name" : "The Cromwell", "offsetInMinutes" : 50, "latitude" : 36.11502456665039, "longitude" : -115.17277526855469, "city" : "Las Vegas", "state" : "Nevada", "code" : "CMWLV", "crossStreets" : [ "Flamingo Rd", "Las Vegas Blvd" ], "timezone" : "America/Los_Angeles", "tags" : [ "Las Vegas", "The Cromwell" ], "streetAddress" : "3595 S Las Vegas Blvd" }
,{ "_id" : "zyhuQNwMgKtZ9az3u", "name" : "Encore at Wynn", "offsetInMinutes" : 48, "latitude" : 36.12872314453125, "longitude" : -115.16706085205078, "city" : "Las Vegas", "state" : "Nevada", "code" : "WYNLV", "crossStreets" : [ "Sands Ave", "Las Vegas Blvd" ], "timezone" : "America/Los_Angeles", "tags" : [ "Las Vegas", "Encore at Wynn" ], "streetAddress" : "3217 S Las Vegas Blvd" }
,{ "_id" : "YcjruDZn8vSBzzYk2", "offsetInMinutes" : 50, "latitude" : 36.116844, "longitude" : -115.154403, "name" : "Excalibur", "city" : "Las Vegas", "state" : "Nevada", "code" : "EXCLV", "crossStreets" : [ "Tropicana Ave", "Las Vegas Blvd" ], "timezone" : "America/Los_Angeles", "tags" : [ "Las Vegas", "Excalibur" ], "streetAddress" : "3970 Paradise Rd" }
,{ "_id" : "SidzaieMtgWpECqwu", "name" : "Flamingo", "offsetInMinutes" : 50, "latitude" : 36.115472, "longitude" : -115.171167, "city" : "Las Vegas", "state" : "Nevada", "code" : "FLALV", "crossStreets" : [ "Flamingo Rd", "Las Vegas Blvd" ], "timezone" : "America/Los_Angeles", "tags" : [ "Las Vegas", "Flamingo" ], "streetAddress" : "3595 E Flamingo Rd" }
,{ "_id" : "JBbjNtJMPcErF5tG4", "latitude" : 36.091434, "longitude" : -115.174533, "name" : "Four Seasons Hotel", "offsetInMinutes" : 55, "city" : "Las Vegas", "state" : "Nevada", "code" : "FSELV", "crossStreets" : [ "Mandalay Bay Rd", "Las Vegas Blvd" ], "timezone" : "America/Los_Angeles", "tags" : [ "Las Vegas", "Four Seasons Hotel" ], "streetAddress" : "3988 Road To Mandalay Bay" }
,{ "_id" : "JvyztwrPN22jgC8Jf", "name" : "The Golden Nugget", "offsetInMinutes" : 5, "latitude" : 36.169953, "longitude" : -115.144787, "city" : "Las Vegas", "state" : "Nevada", "code" : "GNGLV", "crossStreets" : [ "Main St", "Ogden Ave" ], "timezone" : "America/Los_Angeles", "tags" : [ "Las Vegas", "The Golden Nugget" ], "streetAddress" : "129 S Casino Center Blvd" }
,{ "_id" : "QSPn8X7kt5PoNHa5Y", "name" : "The Hard Rock Hotel", "offsetInMinutes" : 45, "latitude" : 36.10875, "longitude" : -115.153417, "city" : "Las Vegas", "state" : "Nevada", "code" : "HRHLV", "crossStreets" : [ "Harmon Ave", "Paradise Rd" ], "timezone" : "America/Los_Angeles", "tags" : [ "Las Vegas", "The Hard Rock Hotel" ], "streetAddress" : "4475 Paradise Rd" }
,{ "_id" : "sqaDgaCjsXGTwCtCQ", "name" : "Harrah's", "offsetInMinutes" : 45, "latitude" : 36.119771, "longitude" : -115.169809, "city" : "Las Vegas", "state" : "Nevada", "code" : "HARLV", "crossStreets" : [ "Flamingo Rd", "Las Vegas Blvd" ], "timezone" : "America/Los_Angeles", "tags" : [ "Las Vegas", "Harrah's" ], "streetAddress" : "3411 Las Vegas Blvd S" }
,{ "_id" : "DoQqASx8o2GogYSoR", "name" : "Innevation Center", "offsetInMinutes" : 65, "latitude" : 36.066861, "longitude" : -115.212167, "city" : "Las Vegas", "state" : "Nevada", "code" : "ICELV", "crossStreets" : [ "215", "S Decatur Blvd" ], "timezone" : "America/Los_Angeles", "tags" : [ "Las Vegas", "Innevation Center" ], "streetAddress" : "6775 Edmond St" }
,{ "_id" : "nseQY2YNcEy6EpNNu", "name" : "La Quinta Inn and Suites", "offsetInMinutes" : 40, "latitude" : 36.116844, "longitude" : -115.154403, "city" : "Las Vegas", "state" : "Nevada", "code" : "LQILV", "crossStreets" : [ "Paradise Rd", "Flamingo Rd" ], "timezone" : "America/Los_Angeles", "tags" : [ "Las Vegas", "La Quinta Inn and Suites" ], "streetAddress" : "3970 Paradise Rd" }
,{ "_id" : "HsQJu6h3vmwjPBB3y", "name" : "Luxor", "offsetInMinutes" : 53, "latitude" : 36.095513, "longitude" : -115.174463, "city" : "Las Vegas", "state" : "Nevada", "code" : "LUXLV", "crossStreets" : [ "Reno Ave", "Las Vegas Blvd" ], "timezone" : "America/Los_Angeles", "tags" : [ "Las Vegas", "Luxor" ], "streetAddress" : "3886 S Las Vegas Blvd" }
,{ "_id" : "d4eeHAqMKYP8tzkpn", "name" : "The M Resort", "offsetInMinutes" : 75, "latitude" : 35.964226, "longitude" : -115.170402, "city" : "Henderson", "state" : "Nevada", "code" : "MHENV", "crossStreets" : [ "St Rose Pkwy", "Las Vegas Blvd" ], "timezone" : "America/Los_Angeles", "tags" : [ "Las Vegas", "The M Resort", "Henderson", "Enterprise", "Boulder City" ], "streetAddress" : "12300 S Las Vegas Blvd" }
,{ "_id" : "QGwRzmZDEDeXDmFaH", "longitude" : -115.17304994165897, "name" : "Mandalay Bay", "offsetInMinutes" : 53, "latitude" : 36.09208010137081, "city" : "Las Vegas", "state" : "Nevada", "code" : "MANLV", "crossStreets" : [ "Mandalay Bay Rd", "Las Vegas Blvd" ], "timezone" : "America/Los_Angeles", "tags" : [ "Las Vegas", "Mandalay Bay" ], "streetAddress" : "3988 Las Vegas Blvd S" }
,{ "_id" : "pJ4tCosWNoiZwtRXB", "name" : "The Mandarin", "offsetInMinutes" : 50, "latitude" : 36.106201171875, "longitude" : -115.17317199707031, "city" : "Las Vegas", "state" : "Nevada", "code" : "MNDLV", "crossStreets" : [ "City Center Place", "Las Vegas Blvd" ], "timezone" : "America/Los_Angeles", "tags" : [ "Las Vegas", "The Mandarin" ], "streetAddress" : "3752 Las Vegas Blvd South" }
,{ "_id" : "qP7w9LM8d97gfg4AF", "name" : "MGM Grand", "offsetInMinutes" : 50, "latitude" : 36.101833, "longitude" : -115.168361, "city" : "Las Vegas", "state" : "Nevada", "code" : "MGMLV", "crossStreets" : [ "Tropicana Ave", "Las Vegas Blvd" ], "timezone" : "America/Los_Angeles", "tags" : [ "Las Vegas", "MGM Grand" ], "streetAddress" : "235 Audrie St" }
,{ "_id" : "SadPmALbQXcodwGZ5", "offsetInMinutes" : 45, "name" : "The Mirage", "latitude" : 36.122535705566406, "longitude" : -115.17137908935547, "city" : "Las Vegas", "state" : "Nevada", "code" : "MIRLV", "crossStreets" : [ "Tropicana Ave", "Las Vegas Blvd" ], "timezone" : "America/Los_Angeles", "tags" : [ "Las Vegas", "The Mirage" ], "streetAddress" : "3400 S Las Vegas Blvd" }
,{ "_id" : "HHmf7XbJTZC5m8JH6", "name" : "Monte Carlo", "offsetInMinutes" : 50, "latitude" : 36.104475, "longitude" : -115.176632, "city" : "Las Vegas", "state" : "Nevada", "code" : "MONLV", "crossStreets" : [ "Park Ave", "Las Vegas Blvd" ], "timezone" : "America/Los_Angeles", "tags" : [ "Las Vegas", "Monte Carlo" ], "streetAddress" : "950 Rue de Monte Carlo" }
,{ "_id" : "4jnn6cwzuuyryNWoW", "name" : "New York, New York", "offsetInMinutes" : 50, "latitude" : 36.10210418701172, "longitude" : -115.17311096191406, "city" : "Las Vegas", "state" : "Nevada", "code" : "NYNLV", "crossStreets" : [ "Tropicana Ave", "Las Vegas Blvd" ], "timezone" : "America/Los_Angeles", "tags" : [ "Las Vegas", "New York, New York" ], "streetAddress" : "3770 S Las Vegas Blvd" }
,{ "_id" : "B8XgHBAeQ2ZGFvvwF", "offsetInMinutes" : 45, "latitude" : 36.12571969628334, "longitude" : -115.16902595758438, "name" : "Palazzo", "city" : "Las Vegas", "state" : "Nevada", "code" : "PZOLV", "crossStreets" : [ "Sands Ave", "Las Vegas Blvd" ], "timezone" : "America/Los_Angeles", "tags" : [ "Las Vegas", "Palazzo" ], "streetAddress" : "3255 South Las Vegas Blvd" }
,{ "_id" : "gZ5FQzg3E4eqwStjH", "offsetInMinutes" : 50, "name" : "Palms", "latitude" : 36.11545181274414, "longitude" : -115.19569396972656, "city" : "Las Vegas", "state" : "Nevada", "code" : "PLMLV", "crossStreets" : [ "Flamingo Rd", "Valley View Blvd" ], "timezone" : "America/Los_Angeles", "tags" : [ "Las Vegas", "Palms" ], "streetAddress" : "4321 W Flamingo Rd" }
,{ "_id" : "7SNHTy6tuekcf6QRu", "latitude" : 36.111936, "longitude" : -115.171575, "name" : "Paris", "offsetInMinutes" : 50, "city" : "Las Vegas", "state" : "Nevada", "code" : "PRSLV", "crossStreets" : [ "Flamingo Rd", "Las Vegas Blvd" ], "timezone" : "America/Los_Angeles", "tags" : [ "Las Vegas", "Paris Las Vegas" ], "streetAddress" : "3655 Las Vegas Blvd South" }
,{ "_id" : "MQZNrnFZ6C6o3LNcX", "name" : "Planet Hollywood", "offsetInMinutes" : 50, "latitude" : 36.11121368408203, "longitude" : -115.17282104492188, "city" : "Las Vegas", "state" : "Nevada", "code" : "PHWLV", "crossStreets" : [ "Harmon Ave", "Las Vegas Blvd" ], "timezone" : "America/Los_Angeles", "tags" : [ "Las Vegas", "Planet Hollywood" ], "streetAddress" : "3667 Las Vegas Blvd South" }
,{ "_id" : "jHTCfHEBdbXtz8PRA", "name" : "Rio", "offsetInMinutes" : 48, "latitude" : 36.115440368652344, "longitude" : -115.1877212524414, "city" : "Las Vegas", "state" : "Nevada", "code" : "RIOLV", "crossStreets" : [ "Flamingo Rd", "Valley View Blvd" ], "timezone" : "America/Los_Angeles", "tags" : [ "Las Vegas", "Rio" ], "streetAddress" : "3700 W Flamingo Rd" }
,{ "_id" : "rxSSP39njvuWJzrqt", "name" : "SLS", "offsetInMinutes" : 20, "latitude" : 36.142095, "longitude" : -115.156049, "city" : "Las Vegas", "state" : "Nevada", "code" : "SLSLV", "crossStreets" : [ "Sahara Ave", "Las Vegas Blvd" ], "timezone" : "America/Los_Angeles", "tags" : [ "Las Vegas", "SLS" ], "streetAddress" : "2535 S Las Vegas Blvd" }
,{ "_id" : "48kKxRbDG4ZeerMAL", "name" : "The Signature", "offsetInMinutes" : 50, "latitude" : 36.1080207824707, "longitude" : -115.16673278808594, "city" : "Las Vegas", "state" : "Nevada", "code" : "SGNLV", "crossStreets" : [ "Harmon Ave", "Audrie St" ], "timezone" : "America/Los_Angeles", "tags" : [ "Las Vegas", "The Signature" ], "streetAddress" : "145 E Harmon Ave" }
,{ "_id" : "SF7Q5xYbtZnh6EYxx", "name" : "Stratosphere", "offsetInMinutes" : 15, "latitude" : 36.1472282409668, "longitude" : -115.1551284790039, "city" : "Las Vegas", "state" : "Nevada", "code" : "SOSLV", "crossStreets" : [ "Sahara Ave", "Las Vegas Blvd" ], "timezone" : "America/Los_Angeles", "tags" : [ "Las Vegas", "Stratosphere" ], "streetAddress" : "2000 South Las Vegas Blvd" }
,{ "_id" : "Z5WxYCxzSEBNdnqmH", "name" : "Treasure Island", "offsetInMinutes" : 40, "latitude" : 36.12349319458008, "longitude" : -115.17071533203125, "city" : "Las Vegas", "state" : "Nevada", "code" : "TRILV", "crossStreets" : [ "Spring Mountain Rd", "Las Vegas Blvd" ], "timezone" : "America/Los_Angeles", "tags" : [ "Las Vegas", "Treasure Island" ], "streetAddress" : "3300 South Las Vegas Blvd" }
,{ "_id" : "en4NN4q39bu8nEgjJ", "offsetInMinutes" : 50, "latitude" : 36.09904479980469, "longitude" : -115.1728286743164, "name" : "Tropicana", "city" : "Las Vegas", "state" : "Nevada", "code" : "TRPLV", "crossStreets" : [ "Tropicana Ave", "Las Vegas Blvd" ], "timezone" : "America/Los_Angeles", "tags" : [ "Las Vegas", "Tropicana" ], "streetAddress" : "3801 S Las Vegas Blvd" }
,{ "_id" : "QC8cjdXkj9fcMrdqA", "latitude" : 36.12883377075195, "longitude" : -115.17264556884766, "offsetInMinutes" : 40, "name" : "Trump", "city" : "Las Vegas", "state" : "Nevada", "code" : "TMPLV", "crossStreets" : [ "Desert Inn Rd", "Sammy Davis Jr Dr" ], "timezone" : "America/Los_Angeles", "tags" : [ "Las Vegas", "Trump" ], "streetAddress" : "2000 N Fashion Show Dr" }
,{ "_id" : "mGjzM6qzfAnB34WJM", "longitude" : -115.170484, "name" : "The Venetian", "offsetInMinutes" : 43, "latitude" : 36.121112, "city" : "Las Vegas", "state" : "Nevada", "code" : "VENLV", "crossStreets" : [ "Sands Ave", "Las Vegas Blvd" ], "timezone" : "America/Los_Angeles", "tags" : [ "Las Vegas", "The Venetian" ], "streetAddress" : "125 E Harmon Ave" }
,{ "_id" : "AGfnoprtoGPJBuowt", "name" : "Wynn", "offsetInMinutes" : 40, "latitude" : 36.12872314453125, "longitude" : -115.16706085205078, "city" : "Las Vegas", "state" : "Nevada", "code" : "WYNLV", "crossStreets" : [ "Sands Ave", "Las Vegas Blvd" ], "timezone" : "America/Los_Angeles", "tags" : [ "Las Vegas", "Wynn" ], "streetAddress" : "3131 South Las Vegas Blvd" }
,{ "_id" : "jwKnvTpfetkgzxuTm", "latitude" : 36.040988, "longitude" : -115.183606, "name" : "Silverton", "offsetInMinutes" : 60, "city" : "Las Vegas", "state" : "Nevada", "code" : "SLVLV", "crossStreets" : [ "Blue Diamond Rd", "Dean Martin Dr" ], "timezone" : "America/Los_Angeles", "tags" : [ "Las Vegas", "Silverton" ], "streetAddress" : "8200 Dean Martin Dr" }
,{ "_id" : "WoFL8gnJwx2bsbKpJ", "name" : "California State University Long Beach", "offsetInMinutes" : 60, "latitude" : 33.776367, "longitude" : -118.113491, "city" : "Long Beach", "state" : "California", "code" : "CSULB", "crossStreets" : [ "E 7th St", "Campus Rd" ], "timezone" : "America/Los_Angeles", "tags" : [ "Long Beach", "Signal Hill", "Lakewood", "Hawaiian Gardens", "Los Alamitos", "Cypress" ], "streetAddress" : "7th St and S Campus Rd" }
,{ "_id" : "8Ge72jxpkzuwo42Eb", "name" : "Four Queens Hotel and Casino", "offsetInMinutes" : 5, "latitude" : 36.169663, "longitude" : -115.143527, "city" : "Las Vegas", "state" : "Nevada", "code" : "FQULV", "crossStreets" : [ "S 3rd St", "E Carson St" ], "timezone" : "America/Los_Angeles", "tags" : [ "Las Vegas", "Four Queens Hotel and Casino" ], "streetAddress" : "202 Fremont St" }
,{ "_id" : "ec7e6pER2Deo2PzhP", "name" : "Southpoint Hotel and Casino", "offsetInMinutes" : 70, "latitude" : 36.011352, "longitude" : -115.174281, "city" : "Las Vegas", "state" : "Nevada", "code" : "SPTLV", "crossStreets" : [ "Silverado Ranch Blvd", "Las Vegas Blvd" ], "timezone" : "America/Los_Angeles", "tags" : [ "Las Vegas", "Southpoint Hotel and Casino" ], "streetAddress" : "9799 S South Point Dr" }
,{ "_id" : "9eW7bFS9kCQLyeNvo", "name" : "Hilton Garden Inn Redondo Beach", "offsetInMinutes" : 0, "latitude" : 33.894227, "longitude" : -118.367407, "city" : "Redondo Beach", "state" : "California", "code" : "HGIRB", "crossStreets" : [ "Marine Ave", "I-405" ], "timezone" : "America/Los_Angeles", "tags" : [ "Redondo Beach", "Lawndale", "Gardena", "Hermosa Beach", "El Segundo", "Manhattan Beach", "Torrance" ], "streetAddress" : "2420 Marine Ave" }
,{ "_id" : "yaAgJoZm3m5CidCZS", "name" : "McDonalds near Main Street Parking", "offsetInMinutes" : 25, "latitude" : 33.685589, "longitude" : -117.856619, "city" : "Irvine", "state" : "California", "code" : "SMPCM", "crossStreets" : [ "Main St", "MacArthur Blvd" ], "timezone" : "America/Los_Angeles", "tags" : [ "Irvine", "Santa Ana", "Westminster", "Huntington Beach", "Newport Beach", "Costa Mesa", "Fountain Valley", "Laguna Woods", "Laguna Hills", "Mission Viejo", "Aliso Viejo", "Laguna Beach", "Ladera Ranch", "Rancho Santa Margarita", "Lake Forest", "John Wayne Airport", "SNA" ], "streetAddress" : "1780 Main St" }
,{ "_id" : "Wwf62qrhwR9ogiS9E", "name" : "Starbucks Metro Pointe At South Coast", "offsetInMinutes" : 15, "latitude" : 33.689733, "longitude" : -117.893385, "city" : "Costa Mesa", "state" : "California", "code" : "SMPCM", "crossStreets" : [ "S Coast Dr", "Bear St" ], "timezone" : "America/Los_Angeles", "tags" : [ "Irvine", "Santa Ana", "Westminster", "Huntington Beach", "Newport Beach", "Costa Mesa", "Fountain Valley", "Laguna Woods", "Laguna Hills", "Mission Viejo", "Aliso Viejo", "Laguna Beach", "Ladera Ranch", "Rancho Santa Margarita", "Lake Forest", "Orange County" ], "streetAddress" : "935 S Coast Dr" }
,{ "_id" : "LcQondkA4gbvwpmYm", "name" : "AMC Victory Gardens", "offsetInMinutes" : 115, "latitude" : 34.112712, "longitude" : -117.5301741, "city" : "Rancho Cucamonga", "state" : "California", "code" : "AMCRC", "crossStreets" : [ "Church St", "Victoria Gardens Ln" ], "timezone" : "America/Los_Angeles", "tags" : [ "Rancho Cucamonga", "Irvine", "Upland", "Fontana", "Eastvale", "Riverside", "Corona", "Norco", "Rialto", "Jurupa Valley", "San Bernadino", "Redlands" ], "streetAddress" : "12600 N Mainstreet" }
,{ "_id" : "sSM7NsmzDHfDdj5Fe", "name" : "Starbucks at Crenshaw and 120th", "offsetInMinutes" : 25, "latitude" : 33.924216, "longitude" : -118.325756, "city" : "Hawthorne", "state" : "California", "code" : "STRHA", "crossStreets" : [ "Crenshaw Blvd", "120th St" ], "timezone" : "America/Los_Angeles", "tags" : [ "Redondo Beach", "Lawndale", "Gardena", "Hermosa Beach", "El Segundo", "Manhattan Beach", "Hawthorne", "Inglewood", "Lynwood", "Compton", "Los Angeles" ], "streetAddress" : "2909 W 120th St" }
,{ "_id" : "j4d2ewrEjQiyJBRom", "name" : "Cocos Bakery, Ontario Mills", "offsetInMinutes" : 90, "latitude" : 34.071346, "longitude" : -117.557085, "city" : "Ontario", "state" : "California", "code" : "CCBON", "crossStreets" : [ "Milliken Ave", "Ontario Mills Pkwy" ], "timezone" : "America/Los_Angeles", "tags" : [ "Ontario", "Eastvale", "Jurupa", "Riverside", "San Bernadino", "ONT" ], "streetAddress" : "4360 Mills Cir" }
,{ "_id" : "4LRSb28Gymdoqm33L", "name" : "The Westin", "offsetInMinutes" : 50, "latitude" : 36.11488, "longitude" : -115.165783, "city" : "Las Vegas", "state" : "Nevada", "code" : "WESLV", "crossStreets" : [ "Flamingo Rd", "Koval Ln" ], "timezone" : "America/Los_Angeles", "tags" : [ "Las Vegas", "The Westin" ], "streetAddress" : "160 E Flamingo Rd" }
,{ "_id" : "6RwpkWAFkFyyPabYP", "name" : "Lakewood Blvd Station Parking Area", "offsetInMinutes" : 55, "latitude" : 33.912462, "longitude" : -118.141447, "city" : "Downey", "state" : "California", "code" : "LSTDO", "crossStreets" : [ "Lakewood Blvd", "I-105" ], "timezone" : "America/Los_Angeles", "tags" : [ "Downey", "Lakewood", "Norwalk", "Compton", "Paramount", "Bellflower", "Lakewood", "Cerritos", "South Gate" ], "streetAddress" : "12815 Lakewood Blvd" }
,{ "_id" : "Gb8gcbhPAtEfQ34Cx", "name" : "Renaissance Hotel", "offsetInMinutes" : 30, "latitude" : 36.127692, "longitude" : -115.154279, "city" : "Las Vegas", "state" : "Nevada", "code" : "RENLV", "crossStreets" : [ "Paradise Rd", "Desert Inn Rd" ], "timezone" : "America/Los_Angeles", "tags" : [ "Las Vegas", "Renaissance Las Vegas Hotel", "Convention Center" ], "streetAddress" : "3400 Paradise Rd" }
,{ "_id" : "vh6i5Quw345xgxo5R", "name" : "Starbucks at CA-91 and State College Blvd", "offsetInMinutes" : 75, "latitude" : 33.8505, "longitude" : -117.888762, "city" : "Anaheim", "state" : "California", "code" : "STRAN", "crossStreets" : [ "N State College Blvd", "N Placentia Ave" ], "timezone" : "America/Los_Angeles", "tags" : [ "Anaheim", "Buena Park", "La Habra", "Brea", "Yorba Linda", "Orange", "Garden Grove", "Santa Ana", "Disneyland", "Orange County" ], "streetAddress" : "1134 N State College Blvd" }
,{ "_id" : "a5DNzFuo3Q3JGeSwj", "name" : "Cabazon Supercharger - Desert Hills Outlets", "offsetInMinutes" : 180, "latitude" : 33.925273, "longitude" : -116.811026, "city" : "Cabazon", "state" : "California", "code" : "TESCA", "crossStreets" : [ "Seminole Dr", "Millard Pass" ], "timezone" : "America/Los_Angeles", "tags" : [ "Cabazon", "Desert Hills", "Morongo" ], "streetAddress" : "48750 Seminole Drive" }
,{ "_id" : "wEP73HsktctcQsPBL", "name" : "McDonalds Beaumont", "offsetInMinutes" : 210, "latitude" : 33.928038, "longitude" : -116.977546, "city" : "Beaumont", "state" : "California", "code" : "BEAMC", "crossStreets" : [ "Beaumont Ave", "5th St" ], "timezone" : "America/Los_Angeles", "tags" : [ "Beaumont", "Cherry Valley", "Tukwet Canyon" ], "streetAddress" : "501 Beaumont Ave" }
,{ "_id" : "97X552YfH7hmMjxvZ", "name" : "Starbucks Inland Center", "offsetInMinutes" : 235, "latitude" : 34.102388, "longitude" : -117.296771, "city" : "San Bernadino", "state" : "California", "code" : "STRSB", "crossStreets" : [ "2nd St", "N F St" ], "timezone" : "America/Los_Angeles", "tags" : [ "San Bernadino", "Redlands", "Rialto", "Fontana" ], "streetAddress" : "601 W 2ND ST" }
,{ "_id" : "y7r5sTzCGQev48rzF", "name" : "Vdara Hotel & Spa", "offsetInMinutes" : 50, "latitude" : 36.109103, "longitude" : 115.177764, "city" : "Las Vegas", "state" : "Nevada", "code" : "VDANV", "crossStreets" : [ "Frank Sinatra Dr", "Harmon Ave" ], "timezone" : "America/Los_Angeles", "tags" : [ "Aria", "City Center", "Vegas", "Silk Road" ], "streetAddress" : "2600 W Harmon Ave" }
,{ "_id" : "wWArxwNwdpL7cdQAw", "name" : "Starbucks at Tesla Indio Supercharger", "offsetInMinutes" : 0, "latitude" : 33.741432, "longitude" : -116.215994, "city" : "Indio", "state" : "California", "code" : "TESIN", "crossStreets" : [ "I-10", "Jackson St" ], "timezone" : "America/Los_Angeles", "tags" : [ "Indio", "Coachella", "Palm Desert" ], "streetAddress" : "42250 Jackson St" }
,{ "_id" : "cEqTc6zrxLnkDyXWj", "name" : "Palm Springs Air Museum", "offsetInMinutes" : 40, "latitude" : 33.832622, "longitude" : -116.504473, "city" : "Palm Springs", "state" : "California", "code" : "AIRPS", "crossStreets" : [ "Vista Chino", "Gene Autry Trail" ], "timezone" : "America/Los_Angeles", "tags" : [ "Airport", "PHP" ], "streetAddress" : "745 N Gene Autry Trail" }
,{ "_id" : "FTYiXNPPvNkxYAGpQ", "name" : "Tesla Supercharger Station at Fox Hills Westfield Mall", "offsetInMinutes" : 0, "latitude" : 33.9867523, "longitude" : -118.39019, "city" : "Culver City", "state" : "California", "code" : "WESCC", "crossStreets" : [ "JC Penney parking lot at Hannum Ave", "Slauson Ave" ], "timezone" : "America/Los_Angeles", "tags" : [ "Culver City", "Los Angeles", "Beverly Hills", "Santa Monica", "LAX", "Inglewood" ], "streetAddress" : "JC Penney Parking lot at 5906 Hannum Ave corner of Fox HIlls Dr" }
,{ "_id" : "TYrSEXZ4fYjuinzae", "name" : "Palm Springs Convention Center", "offsetInMinutes" : 50, "latitude" : 33.824939, "longitude" : -116.53942, "city" : "Palm Springs", "state" : "California", "code" : "PSCCE", "crossStreets" : [ "Avenida Caballeros", "Tahquitz Canyon Way" ], "timezone" : "America/Los_Angeles", "tags" : [ "Palm Springs Convention Center", "Palm Springs Airport", "Palm Springs International Airport", "PSP" ], "streetAddress" : "277 N Avenida Caballeros" }
,{ "_id" : "29orG6bFtTKDC6YNL", "longitude" : -115.150209, "name" : "McCarran Airport", "offsetInMinutes" : 0, "latitude" : 36.088557, "city" : "Las Vegas", "state" : "Nevada", "code" : "MCAIR", "crossStreets" : [ "Paradise Rd", "Russell Rd" ], "timezone" : "America/Los_Angeles", "tags" : [ "Las Vegas", "Airport", "LAS" ], "streetAddress" : "3988 Las Vegas Blvd S" }
,{ "_id" : "7D84mveQtbxup874E", "longitude" : -114.691756, "name" : "The Future", "offsetInMinutes" : 0, "latitude" : 36.551402, "city" : "Las Vegas", "state" : "Nevada", "code" : "FUTUR", "crossStreets" : [ "Now", "Forever" ], "timezone" : "America/Los_Angeles", "tags" : [ "Further", "Future" ], "streetAddress" : "Moapa Indian Reservation" }
,{ "_id" : "bSjjCjN9baZCf6DZA", "name" : "Fantasy Springs Resort Casino", "offsetInMinutes" : 10, "latitude" : 33.721649, "longitude" : -116.194107, "city" : "Coachella Valley", "state" : "California", "code" : "FSRCC", "crossStreets" : [ "I-10", "Golf Center Pkwy" ], "timezone" : "America/Los_Angeles", "tags" : [ "Palm Springs", "Casino", "Eagle Falls", "Cabazon", "Indio", "Coachella" ], "streetAddress" : "84245 Indio Springs Dr" }
,{ "_id" : "itNqbpguq8Ws57Bde", "name" : "Spotlight 29 Casino", "offsetInMinutes" : 20, "latitude" : 33.712367, "longitude" : -116.183246, "city" : "Coachella", "state" : "California", "code" : "SPTNC", "crossStreets" : [ "I-10", "Rt 86" ], "timezone" : "America/Los_Angeles", "tags" : [ "Palm Springs", "Casino", "Eagle Falls", "Cabazon", "Indio", "Coachella" ], "streetAddress" : "46-200 Harrison Pl" }
,{ "_id" : "xu7FiaNwypn7yQz9w", "offsetInMinutes" : 40, "longitude" : -116.417568, "latitude" : 33.801156, "code" : "WESRM", "name" : "The Westin Mission Hills Resort", "city" : "Rancho Mirage", "state" : "California", "crossStreets" : [ "Dinah Shore Dr", "Bob Hope Dr" ], "timezone" : "America/Los_Angeles", "tags" : [ "Palm Springs", "Golf Resort" ], "streetAddress" : "71333 Dinah Shore Dr" }
,{ "_id" : "CseDrvRd8q2WW7xrh", "offsetInMinutes" : 50, "longitude" : -116.538536, "latitude" : 33.823533, "code" : "RENPS", "name" : "Renaissance Palm Springs Hotel", "city" : "Palm Springs", "state" : "California", "crossStreets" : [ "Tahquitz Canyon Way", "Avenida Caballeros" ], "timezone" : "America/Los_Angeles", "tags" : [ "Palm Springs", "Convention Center" ], "streetAddress" : "888 E Tahquitz Canyon Way" }
,{ "_id" : "KEJ9AAT4jYPGPF24f", "offsetInMinutes" : 52, "longitude" : -116.543549, "latitude" : 33.823986, "code" : "HILPS", "name" : "Hilton Palm Springs", "city" : "Palm Springs", "state" : "California", "crossStreets" : [ "Tahquitz Canyon Way", "Calle El Segundo" ], "timezone" : "America/Los_Angeles", "tags" : [ "Palm Springs", "Convention Center" ], "streetAddress" : "400 E Tahquitz Canyon" }
,{ "_id" : "tQDupqbN7GE7kAj2A", "offsetInMinutes" : 54, "longitude" : -116.545266, "latitude" : 33.822171, "code" : "HRHPS", "name" : "Hard Rock Hotel Palm Springs", "city" : "Palm Springs", "state" : "California", "crossStreets" : [ "Tahquitz Canyon Way", "Indian Canyon Dr" ], "timezone" : "America/Los_Angeles", "tags" : [ "Palm Springs", "Convention Center" ], "streetAddress" : "150 S Indian Canyon Dr" }
,{ "_id" : "ZnTB2W4PDSWZx7jr2", "offsetInMinutes" : 56, "longitude" : -116.547188, "latitude" : 33.826115, "code" : "HYAPS", "name" : "Hyatt Palm Springs", "city" : "Palm Springs", "state" : "California", "crossStreets" : [ "Amado Rd", "Palm Canyon Dr" ], "timezone" : "America/Los_Angeles", "tags" : [ "Palm Springs", "Convention Center" ], "streetAddress" : "285 N Palm Canyon Dr" }
,{ "_id" : "wtJJesogx54EYfjvP", "name" : "Delano", "offsetInMinutes" : 53, "latitude" : 36.092545, "longitude" : -115.17753, "city" : "Las Vegas", "state" : "Nevada", "code" : "DELLV", "crossStreets" : [ "Las Vegas Blvd", "Mandalay Bay Rd" ], "timezone" : "America/Los_Angeles", "tags" : [ "Mandalay", "Las Vegas" ], "streetAddress" : "3940 S Las Vegas Blvd" }
,{ "_id" : "sztJMYaTAMgRRq44Q", "name" : "Panera at Imperial Hwy and CA-57", "offsetInMinutes" : 80, "latitude" : 33.911571, "longitude" : -117.880849, "city" : "Brea", "state" : "California", "code" : "PANBC", "crossStreets" : [ "Imperial Hwy", "CA-57" ], "timezone" : "America/Los_Angeles", "tags" : [ "Brea", "La Habra", "Fullerton", "Yorba Linda", "Placentia", "La Mirada" ], "streetAddress" : "423 S Associated Rd" }
,{ "_id" : "wExMfozhi53QnJdnK", "name" : "Starbucks at Mountain Ave and SR-60", "offsetInMinutes" : 80, "latitude" : 34.031718, "longitude" : -117.668185, "city" : "Ontario", "state" : "California", "code" : "STRON", "crossStreets" : [ "Mountain Ave", "SR-60" ], "timezone" : "America/Los_Angeles", "tags" : [ "Ontario", "Chino", "Pamona" ], "streetAddress" : "2304 S Mountain Ave" }
,{ "_id" : "FxNjTa8Kj47T7LRAW", "name" : "Krispy Kreme at Azusa Ave and SR-60", "offsetInMinutes" : 65, "latitude" : 33.995024, "longitude" : -117.930803, "city" : "City of Industry", "state" : "California", "code" : "STRON", "crossStreets" : [ "Mountain Ave", "SR-60" ], "timezone" : "America/Los_Angeles", "tags" : [ "City of Industry", "La Puente", "Rowland Heights", "Hacienda Heights", "South San Jose Hills", "La Habra Heights", "Walnut" ], "streetAddress" : "1548 S Azusa Ave" }
,{ "_id" : "ziaLqJtd75pyQXjDK", "name" : "McDonald's at Atlantic Blvd and SR-60", "offsetInMinutes" : 55, "latitude" : 34.032965, "longitude" : -118.15326, "city" : "East Los Angeles", "state" : "California", "code" : "MCDLA", "crossStreets" : [ "Atlantic Blvd", "SR-60" ], "timezone" : "America/Los_Angeles", "tags" : [ "East Los Angeles", "Monterey Park", "Montebello", "City Terrace", "Maywood", "Pico Rivera", "Commerce" ], "streetAddress" : "269 S Atlantic Blvd" }
,{ "_id" : "NxdSNrx3ommLuKkjh", "name" : "Hyatt Regency Indian Wells Resort & Spa", "offsetInMinutes" : 40, "latitude" : 33.724249, "longitude" : -116.331244, "city" : "Indian Wells", "state" : "California", "code" : "HRIWR", "crossStreets" : [ "Indian Wells Ln", "111" ], "timezone" : "America/Los_Angeles", "tags" : [ "Indian Wells", "Hyatt", "Palm Springs", "Indio" ], "streetAddress" : "44600 Indian Wells Ln" }
,{ "_id" : "CxiyuN5np296FXDTc", "name" : "Palace Station Hotel and Casino", "offsetInMinutes" : 25, "latitude" : 36.142617, "longitude" : -115.175743, "city" : "Las Vegas", "state" : "Nevada", "code" : "PLSLV", "crossStreets" : [ "Sahara Ave", "Las Vegas Blvd" ], "timezone" : "America/Los_Angeles", "tags" : [ "Palace", "Station", "Vegas" ], "streetAddress" : "2411 W Sahara Ave" }
,{ "_id" : "7bLfjv4omoFE7srCp", "name" : "McDonalds Yorba Linda Blvd", "offsetInMinutes" : 50, "latitude" : 33.872428, "longitude" : -117.745067, "city" : "Yorba Linda", "state" : "California", "code" : "MCDYO", "crossStreets" : [ "Yorba Linda Blvd", "Old Canal Rd" ], "timezone" : "America/Los_Angeles", "tags" : [ "Orange Park Acres", "Villa Park", "92887" ], "streetAddress" : "22322 Old Canal Rd" }
,{ "_id" : "e29TviCcCZCKs5mDY", "name" : "Tesla Supercharger Reno", "offsetInMinutes" : 0, "latitude" : 39.489097, "longitude" : -119.794609, "city" : "Reno", "state" : "Nevada", "code" : "TESRE", "crossStreets" : [ "Virginia St", "Peckham Ln" ], "timezone" : "America/Los_Angeles", "tags" : [ "Sparks", "Atlantis" ], "streetAddress" : "3800 S Virginia St" }
,{ "_id" : "Xhmo2jyELRLXJKJGc", "name" : "Tesla Supercharger Vacaville", "offsetInMinutes" : 0, "latitude" : 38.366517, "longitude" : -121.958266, "city" : "Vacaville", "state" : "California", "code" : "TESVA", "crossStreets" : [ "Nut Tree Rd", "I-80" ], "timezone" : "America/Los_Angeles", "tags" : [ "Sacramento", "Davis" ], "streetAddress" : "Vacaville Premium Outlets, 321 Nut Tree Rd" }
,{ "_id" : "b6bB8DAgG7JB2Eomz", "name" : "Starbucks Elm Ave Exit", "offsetInMinutes" : 125, "latitude" : 38.90419, "longitude" : -121.073841, "city" : "Auburn", "state" : "California", "code" : "STRAU", "crossStreets" : [ "Elm Ave", "Auburn Ravine Rd" ], "timezone" : "America/Los_Angeles", "tags" : [ "Sacramento", "Gold Country", "Elders Corner" ], "streetAddress" : "392 Elm Avenue" }
,{ "_id" : "bqR4DbpJeyCpSsCdt", "name" : "Tesla Supercharger Roseville", "offsetInMinutes" : 95, "latitude" : 38.771224, "longitude" : -121.26621, "city" : "Roseville", "state" : "California", "code" : "TESRO", "crossStreets" : [ "Galleria Blvd", "Roseville Pkwy" ], "timezone" : "America/Los_Angeles", "tags" : [ "Rocklin", "Sacramento", "Citrus Heights", "Granite Bay", "Whitney", "Thunder Valley" ], "streetAddress" : "1151 Galleria Blvd" }
,{ "_id" : "WSB4ZzcTPSgkfPyps", "name" : "UC Davis Good Life Garden", "offsetInMinutes" : 20, "latitude" : 38.532485, "longitude" : -121.750196, "city" : "Davis", "state" : "California", "code" : "UCDA1", "crossStreets" : [ "Old Davis Rd", "Hilgard Ln" ], "timezone" : "America/Los_Angeles", "tags" : [ "Webster", "Sacramento", "Plainfield", "Dixon", "Woodland" ], "streetAddress" : "392 Old Davis Rd" }
,{ "_id" : "tW5Bf8GCeQm2jxSTC", "name" : "Starbucks Greenback Ln Exit", "offsetInMinutes" : 80, "latitude" : 38.680777, "longitude" : -121.332968, "city" : "Citrus Heights", "state" : "California", "code" : "STRCH", "crossStreets" : [ "Greenback Ln", "Garfield Ave" ], "timezone" : "America/Los_Angeles", "tags" : [ "McClellan", "Sacramento", "North Highlands", "Antelope", "Fair Oaks" ], "streetAddress" : "6306 Garfield Ave" }
,{ "_id" : "XRbPvtvNJNxyGyL9Q", "name" : "Starbucks N St Exit", "offsetInMinutes" : 50, "latitude" : 38.568023, "longitude" : -121.467063, "city" : "Sacramento", "state" : "California", "code" : "STRCH", "crossStreets" : [ "Alhambra Blvd", "N St" ], "timezone" : "America/Los_Angeles", "tags" : [ "Central Sacramento", "McKinley Park" ], "streetAddress" : "1401 Alhambra Blvd" }
,{ "_id" : "ruAtZS9pE3ZNmSzZx", "name" : "Sacramento Station", "offsetInMinutes" : 40, "latitude" : 38.584041, "longitude" : -121.500857, "city" : "Sacramento", "state" : "California", "code" : "STRSS", "crossStreets" : [ "I St", "5th St" ], "timezone" : "America/Los_Angeles", "tags" : [ "Valley Station", "Old Sacramento", "Golden 1 Center" ], "streetAddress" : "401 I St" }
,{ "_id" : "tk7Fh5gKEeH9Tuygh", "name" : "Best Western Airport Plaza Hotel", "offsetInMinutes" : 10, "latitude" : 39.507338, "longitude" : -119.778182, "city" : "Reno", "state" : "Nevada", "code" : "BESNE", "crossStreets" : [ "Terminal Way", "Plumb Lane" ], "timezone" : "America/Los_Angeles", "tags" : [ "Airport", "Reno-Tahoe", "Reno" ], "streetAddress" : "1981 Terminal Way" }
,{ "_id" : "9SmfHFiRAzkG9pYRB", "name" : "Tesla Supercharger Truckee Donner Pass Road", "offsetInMinutes" : 50, "latitude" : 39.327457, "longitude" : -120.207399, "city" : "Truckee", "state" : "California", "code" : "TRUCA", "crossStreets" : [ "Donner Pass Rd", "89" ], "timezone" : "America/Los_Angeles", "tags" : [ "Truckee", "Ponderosa", "Coyote" ], "streetAddress" : "11290 Donner Pass Rd" }]
